{"type": "FeatureCollection", "features": [{"geometry": {"type": "Point", "coordinates": [16.143612, 48.195835]}, "type": "Feature", "properties": {"owner": "Amt der Niederösterreichischen Landesregierung", "location": "Gemeindebauhof, Tullnerbachstraße (B44)", "id": "03:0065", "name": "Purkersdorf, Tullnerbachstraße"}}, {"geometry": {"type": "Point", "coordinates": [14.878333, 48.12027778]}, "type": "Feature", "properties": {"owner": "Amt der Niederösterreichischen Landesregierung", "location": "Nikolaus Lenau-Gasse, Parkplatz vor der Schule", "id": "03:0101", "name": "Amstetten"}}, {"geometry": {"type": "Point", "coordinates": [14.86666667, 48.17972222]}, "type": "Feature", "properties": {"owner": "Amt der Niederösterreichischen Landesregierung", "location": "Kollmitzberg", "id": "03:0103", "name": "Kollmitzberg"}}, {"geometry": {"type": "Point", "coordinates": [14.51954, 48.19223]}, "type": "Feature", "properties": {"owner": "Amt der Niederösterreichischen Landesregierung", "location": "Geberbegebiet Neu-Thurnsdorf, Buchenstraße", "id": "03:0104", "name": "St. Valentin, Westautobahn"}}, {"geometry": {"type": "Point", "coordinates": [16.205833, 47.959167]}, "type": "Feature", "properties": {"owner": "Amt der Niederösterreichischen Landesregierung", "location": "Försterschule Gainfarn, Kottingbrunner Str., Sportplatz", "id": "03:0201", "name": "Bad Vöslau, Gainfarn"}}, {"geometry": {"type": "Point", "coordinates": [15.919444444, 48.1061111]}, "type": "Feature", "properties": {"owner": "Amt der Niederösterreichischen Landesregierung", "location": "Forsthof am Schöpfl", "id": "03:0202", "name": "Forsthof am Schöpfl"}}, {"geometry": {"type": "Point", "coordinates": [16.959444, 48.143612]}, "type": "Feature", "properties": {"owner": "Amt der Niederösterreichischen Landesregierung", "location": "Parkplatz Bezirkskrankenhaus, Florianistraße", "id": "03:0301", "name": "Hainburg Krankenhaus"}}, {"geometry": {"type": "Point", "coordinates": [16.675278, 48.050278]}, "type": "Feature", "properties": {"owner": "Amt der Niederösterreichischen Landesregierung", "location": "Stixneusiedl, Hochbehälter Viehtrift", "id": "03:0302", "name": "Stixneusiedl"}}, {"geometry": {"type": "Point", "coordinates": [16.729445, 48.33472]}, "type": "Feature", "properties": {"owner": "Amt der Niederösterreichischen Landesregierung", "location": "Baumschulweg", "id": "03:0401", "name": "Gänserndorf Baumschulweg"}}, {"geometry": {"type": "Point", "coordinates": [16.522666622, 48.39222222]}, "type": "Feature", "properties": {"owner": "Amt der Niederösterreichischen Landesregierung", "location": "Hochbehälter Breitenkreuz", "id": "03:0403", "name": "Wolkersdorf"}}, {"geometry": {"type": "Point", "coordinates": [16.63638889, 48.230833333]}, "type": "Feature", "properties": {"owner": "Amt der Niederösterreichischen Landesregierung", "location": "L3010 zwischen Glinzendorf und Rutzendorf", "id": "03:0407", "name": "Groß-Enzersdorf - Glinzendorf"}}, {"geometry": {"type": "Point", "coordinates": [15.04666667, 48.8786111]}, "type": "Feature", "properties": {"owner": "Amt der Niederösterreichischen Landesregierung", "location": "Thaures", "id": "03:0502", "name": "Heidenreichstein Thaures"}}, {"geometry": {"type": "Point", "coordinates": [16.3279444, 48.30822222]}, "type": "Feature", "properties": {"owner": "Amt der Niederösterreichischen Landesregierung", "location": "Parkplatz Bahnhof Klosterneuburg-Kierling", "id": "03:0599", "name": "Klosterneuburg B14 (Bahnhof Klosterneuburg-Kierling)"}}, {"geometry": {"type": "Point", "coordinates": [16.320833, 48.302223]}, "type": "Feature", "properties": {"owner": "Amt der Niederösterreichischen Landesregierung", "location": "Wisentgasse, Stadtgärtnerei (Friedhof)", "id": "03:0601", "name": "Klosterneuburg Wisentgasse (Friedhof)"}}, {"geometry": {"type": "Point", "coordinates": [16.433333333, 48.086111111]}, "type": "Feature", "properties": {"owner": "Amt der Niederösterreichischen Landesregierung", "location": "Am Alten Markt", "id": "03:0603", "name": "Himberg, Alter Markt"}}, {"geometry": {"type": "Point", "coordinates": [15.942777777777778, 48.528888888888886]}, "type": "Feature", "properties": {"owner": "Amt der Niederösterreichischen Landesregierung", "location": "Kläranlage", "id": "03:0701", "name": "Ziersdorf"}}, {"geometry": {"type": "Point", "coordinates": [15.5002778, 48.7244444]}, "type": "Feature", "properties": {"owner": "Amt der Niederösterreichischen Landesregierung", "location": "Rothweinsdorf", "id": "03:0801", "name": "Irnfritz - Rothweinsdorf"}}, {"geometry": {"type": "Point", "coordinates": [16.182222, 48.385277]}, "type": "Feature", "properties": {"owner": "Amt der Niederösterreichischen Landesregierung", "location": "Rudolf Diesel-Straße", "id": "03:0902", "name": "Stockerau, Rudolf Diesel-Straße"}}, {"geometry": {"type": "Point", "coordinates": [15.32194444, 47.86194444]}, "type": "Feature", "properties": {"owner": "Amt der Niederösterreichischen Landesregierung", "location": "Joachimsberg-Längsseitenrotte", "id": "03:1102", "name": "Annaberg, Joachimsberg"}}, {"geometry": {"type": "Point", "coordinates": [15.197222222222223, 48.21333333333334]}, "type": "Feature", "properties": {"owner": "Amt der Niederösterreichischen Landesregierung", "location": "Brunnenschutzgebiet, Donauuferpromenade", "id": "03:1204", "name": "Pöchlarn"}}, {"geometry": {"type": "Point", "coordinates": [16.5805556, 48.5786111]}, "type": "Feature", "properties": {"owner": "Amt der Niederösterreichischen Landesregierung", "location": "Hochbehälter Steinhübel", "id": "03:1301", "name": "Mistelbach Steinhübel"}}, {"geometry": {"type": "Point", "coordinates": [16.3022222, 48.0861111]}, "type": "Feature", "properties": {"owner": "Amt der Niederösterreichischen Landesregierung", "location": "Untere Bachgasse (Park vor Schule)", "id": "03:1401", "name": "Mödling Bachgasse"}}, {"geometry": {"type": "Point", "coordinates": [16.331388, 48.125]}, "type": "Feature", "properties": {"owner": "Amt der Niederösterreichischen Landesregierung", "location": "Peter Jordan-Straße, Kindbergstraße", "id": "03:1402", "name": "Vösendorf Kindbergstraße"}}, {"geometry": {"type": "Point", "coordinates": [16.33722222222222, 48.083333333333336]}, "type": "Feature", "properties": {"owner": "Amt der Niederösterreichischen Landesregierung", "location": "Mühlengasse", "id": "03:1406", "name": "Biedermannsdorf Mühlengasse"}}, {"geometry": {"type": "Point", "coordinates": [16.330277777777777, 48.08388888888889]}, "type": "Feature", "properties": {"owner": "Amt der Niederösterreichischen Landesregierung", "location": "Abfallwirtschaftszentrum", "id": "03:1413", "name": "Wiener Neudorf Hauptstraße"}}, {"geometry": {"type": "Point", "coordinates": [15.860277778, 47.67027778]}, "type": "Feature", "properties": {"owner": "Amt der Niederösterreichischen Landesregierung", "location": "Kreuzberg, Althammerhofstraße, Coronakreuz", "id": "03:1502", "name": "Payerbach - Kreuzberg"}}, {"geometry": {"type": "Point", "coordinates": [15.54583333, 48.370278]}, "type": "Feature", "properties": {"owner": "Amt der Niederösterreichischen Landesregierung", "location": "Unterbergern Bäckerberg", "id": "03:1701", "name": "Dunkelsteinerwald - Unterbergern"}}, {"geometry": {"type": "Point", "coordinates": [15.74694444, 48.35333333]}, "type": "Feature", "properties": {"owner": "Amt der Niederösterreichischen Landesregierung", "location": "Donaustraße", "id": "03:1703", "name": "Traismauer"}}, {"geometry": {"type": "Point", "coordinates": [16.0625, 48.329445]}, "type": "Feature", "properties": {"owner": "Amt der Niederösterreichischen Landesregierung", "location": "Leopoldgasse, neben Friedhof bei Grottenthalgasse", "id": "03:1901", "name": "Tulln Leopoldgasse"}}, {"geometry": {"type": "Point", "coordinates": [15.903611111111111, 48.33111111111111]}, "type": "Feature", "properties": {"owner": "Amt der Niederösterreichischen Landesregierung", "location": "Dürnrohr", "id": "03:1902", "name": "Zwentendorf im Tullnerfeld"}}, {"geometry": {"type": "Point", "coordinates": [15.935, 48.2763888889]}, "type": "Feature", "properties": {"owner": "Amt der Niederösterreichischen Landesregierung", "location": "Streithofen im Tullnerfeld, Spitaler Weg", "id": "03:1904", "name": "Streithofen im Tullnerfeld"}}, {"geometry": {"type": "Point", "coordinates": [16.29305556, 47.60833333]}, "type": "Feature", "properties": {"owner": "Amt der Niederösterreichischen Landesregierung", "location": "Mäuserriegel", "id": "03:2101", "name": "Wiesmath"}}, {"geometry": {"type": "Point", "coordinates": [15.634167, 48.2125]}, "type": "Feature", "properties": {"owner": "Amt der Niederösterreichischen Landesregierung", "location": "Eybnerstraße, hinter D. Gran-Str. 16, Sportpl. Sonderschule", "id": "03:2301", "name": "St. Pölten Eybnerstraße"}}, {"geometry": {"type": "Point", "coordinates": [15.6204, 48.2013]}, "type": "Feature", "properties": {"owner": "Amt der Niederösterreichischen Landesregierung", "location": "Europaplatz", "id": "03:2302", "name": "St. Pölten Europaplatz HTL"}}, {"geometry": {"type": "Point", "coordinates": [16.255, 47.81416667]}, "type": "Feature", "properties": {"owner": "Amt der Niederösterreichischen Landesregierung", "location": "Neuklosterwiese Sportplatz", "id": "03:2401", "name": "Wiener Neustadt"}}, {"geometry": {"type": "Point", "coordinates": [15.619166, 48.40861]}, "type": "Feature", "properties": {"owner": "Amt der Niederösterreichischen Landesregierung", "location": "St.Paul-Gasse, BG Rechte Kremszeile (B3: 170m, S37: 470m) ", "id": "03:2501", "name": "Krems"}}, {"geometry": {"type": "Point", "coordinates": [14.772277777777779, 48.04511111111111]}, "type": "Feature", "properties": {"owner": "Amt der Niederösterreichischen Landesregierung", "location": "Gimpersdorf", "id": "03:2604", "name": "Kematen an der Ybbs"}}, {"geometry": {"type": "Point", "coordinates": [16.474444444444444, 48.144999999999996]}, "type": "Feature", "properties": {"owner": "Amt der Niederösterreichischen Landesregierung", "location": "Phönix-Sportplatz, Mühlgasse/Radetzkystraße", "id": "03:2701", "name": "Schwechat Sportplatz, Mühlgasse"}}, {"geometry": {"type": "Point", "coordinates": [16.51111, 48.145]}, "type": "Feature", "properties": {"owner": "Amt der Niederösterreichischen Landesregierung", "location": "Danubiastraße, Brücke A4", "id": "03:2702", "name": "Mannswörth bei Schwechat, Danubiastraße/A4"}}]}